{"type":"FeatureCollection","features":[{"type":"Feature","geometry":{"type":"Point","coordinates":[-74.0145971,40.7096705,0]},"properties":{"name":"Carlisle & Washington","Address":"85 West Street 10006"}},{"type":"Feature","geometry":{"type":"Point","coordinates":[-73.9732517,40.7549943,0]},"properties":{"name":"48th & Lexington","Address":"511 Lexington Avenue 10017"}},{"type":"Feature","geometry":{"type":"Point","coordinates":[-74.0072149,40.7084158,0]},"properties":{"name":"Platt & William","Address":"100 William Street 10038"}},{"type":"Feature","geometry":{"type":"Point","coordinates":[-74.0127836,40.7028004,0]},"properties":{"name":"Water & Whitehall","Address":"2 Water Street 10004"}},{"type":"Feature","geometry":{"type":"Point","coordinates":[-74.0050519,40.711071,0]},"properties":{"name":"William & Spruce (Pace University)","Address":"1 Pace Plaza 10038"}},{"type":"Feature","geometry":{"type":"Point","coordinates":[-74.0020506753937,40.7568434587639,0]},"properties":{"name":"35th & 11th (Javits Center)","Address":"655 West 34th Street 10001"}},{"type":"Feature","geometry":{"type":"Point","coordinates":[-73.969395,40.761355,0]},"properties":{"name":"57th & Lexington NWC","Address":"135 East 57th Street 10022"}},{"type":"Feature","geometry":{"type":"Point","coordinates":[-73.9820714,40.7643043,0]},"properties":{"name":"54th & Broadway","Address":"1710 Broadway 10019"}},{"type":"Feature","geometry":{"type":"Point","coordinates":[-73.9814369259338,40.7618370545343,0]},"properties":{"name":"52nd & 7th","Address":"156 West 52nd Street 10019"}},{"type":"Feature","geometry":{"type":"Point","coordinates":[-73.9758159,40.7545982,0]},"properties":{"name":"45th & Park","Address":"230 Park Avenue 10169"}},{"type":"Feature","geometry":{"type":"Point","coordinates":[-73.9748219,40.7531345,0]},"properties":{"name":"44th & Lexington","Address":"450 Lexington Avenue 10017"}},{"type":"Feature","geometry":{"type":"Point","coordinates":[-73.9787425,40.7537802,0]},"properties":{"name":"44th & Madison","Address":"340 Madison Avenue 10017"}},{"type":"Feature","geometry":{"type":"Point","coordinates":[-73.9891118,40.7581316,0]},"properties":{"name":"43rd & 8th","Address":"684 Eighth Avenue 10036"}},{"type":"Feature","geometry":{"type":"Point","coordinates":[-73.9862092,40.7567725,0]},"properties":{"name":"43rd & Broadway","Address":"1500 Broadway 10036"}},{"type":"Feature","geometry":{"type":"Point","coordinates":[-73.9839774576721,40.7554935028568,0]},"properties":{"name":"43rd & 6th","Address":"1101-1109 Avenue of the Americas 10036"}},{"type":"Feature","geometry":{"type":"Point","coordinates":[-73.976077755542,40.7522963991662,0]},"properties":{"name":"43rd & Lexington (Grand Central)","Address":"107 East 43rd Street 10017"}},{"type":"Feature","geometry":{"type":"Point","coordinates":[-73.979142,40.753241,0]},"properties":{"name":"42nd & Madison","Address":"330 Madison Avenue 10017"}},{"type":"Feature","geometry":{"type":"Point","coordinates":[-73.9748094,40.750119,0]},"properties":{"name":"41st & 3rd","Address":"639 3rd Avenue 10017"}},{"type":"Feature","geometry":{"type":"Point","coordinates":[-73.99058,40.751296,0]},"properties":{"name":"34th & 7th","Address":"450 7th Avenue 10123"}},{"type":"Feature","geometry":{"type":"Point","coordinates":[-73.988963,40.7493052,0]},"properties":{"name":"33rd & 6th (Manhattan Mall)","Address":"100 West 33rd Street 10001"}},{"type":"Feature","geometry":{"type":"Point","coordinates":[-73.9867417,40.7401544,0]},"properties":{"name":"23rd & Park","Address":"304 Park Avenue South 10010"}},{"type":"Feature","geometry":{"type":"Point","coordinates":[-73.9830451,40.7387864,0]},"properties":{"name":"23rd & 3rd","Address":"296-300 Third Avenue 10010"}},{"type":"Feature","geometry":{"type":"Point","coordinates":[-74.0002653,40.7182069,0]},"properties":{"name":"Canal & Centre","Address":"241 Canal Street 10013"}},{"type":"Feature","geometry":{"type":"Point","coordinates":[-74.0109418,40.7095523,0]},"properties":{"name":"Liberty & Broadway","Address":"165 Broadway 10006"}},{"type":"Feature","geometry":{"type":"Point","coordinates":[-73.931687,40.7955738,0]},"properties":{"name":"117th & Pleasant Ave","Address":"517 East 117th Street 10035"}},{"type":"Feature","geometry":{"type":"Point","coordinates":[-73.945095,40.807804,0]},"properties":{"name":"125th & Lenox","Address":"77-83 West 125th Street 10027"}},{"type":"Feature","geometry":{"type":"Point","coordinates":[-73.9867043,40.7339319,0]},"properties":{"name":"15th & 3rd","Address":"145 Third Avenue 10003"}},{"type":"Feature","geometry":{"type":"Point","coordinates":[-74.0045012,40.7417806,0]},"properties":{"name":"15th & 9th","Address":"76 9th Avenue 10011"}},{"type":"Feature","geometry":{"type":"Point","coordinates":[-73.9898233,40.7347832,0]},"properties":{"name":"15th & Union Square East","Address":"10 Union Square East 10003"}},{"type":"Feature","geometry":{"type":"Point","coordinates":[-73.9398742,40.8411528,0]},"properties":{"name":"168th & Broadway","Address":"4001 Broadway 10032"}},{"type":"Feature","geometry":{"type":"Point","coordinates":[-73.9384418,40.8510855,0]},"properties":{"name":"181st & Fort Washington Ave","Address":"803 West 181st Street 10033"}},{"type":"Feature","geometry":{"type":"Point","coordinates":[-73.990382,40.741571,0]},"properties":{"name":"23rd & 5th","Address":"14 West 23rd Street 10010"}},{"type":"Feature","geometry":{"type":"Point","coordinates":[-73.998969,40.7452921,0]},"properties":{"name":"23rd & 8th","Address":"300 West 23rd Street 10011"}},{"type":"Feature","geometry":{"type":"Point","coordinates":[-73.9910916,40.7449885,0]},"properties":{"name":"27th & 6th","Address":"776 Avenue of the Americas 10001"}},{"type":"Feature","geometry":{"type":"Point","coordinates":[-73.9952374,40.7472082,0]},"properties":{"name":"27th & 8th (FIT)","Address":"227 West 27th Street 10001"}},{"type":"Feature","geometry":{"type":"Point","coordinates":[-73.9867232,40.7450394,0]},"properties":{"name":"29th & 5th","Address":"261 Fifth Avenue 10016"}},{"type":"Feature","geometry":{"type":"Point","coordinates":[-73.999437,40.753049,0]},"properties":{"name":"33rd & 10th","Address":"450 West 33rd Street 10001"}},{"type":"Feature","geometry":{"type":"Point","coordinates":[-73.9923100674591,40.7515187261789,0]},"properties":{"name":"34th & 8th","Address":"1 Penn Plaza 10119"}},{"type":"Feature","geometry":{"type":"Point","coordinates":[-73.9891862059433,40.7509880468505,0]},"properties":{"name":"34th & Broadway (Macy's 5th Floor)","Address":"151 West 34th Street 10001"}},{"type":"Feature","geometry":{"type":"Point","coordinates":[-73.9895187998611,40.7510571320074,0]},"properties":{"name":"34th & Broadway (Macy's 6th Floor)","Address":"151 West 34th Street 10001"}},{"type":"Feature","geometry":{"type":"Point","coordinates":[-73.992757,40.7525959,0]},"properties":{"name":"35th & 8th","Address":"494 Eighth Avenue 10001"}},{"type":"Feature","geometry":{"type":"Point","coordinates":[-73.9869329,40.7509962,0]},"properties":{"name":"36th & 6th","Address":"977 Avenue of the Americas 10018"}},{"type":"Feature","geometry":{"type":"Point","coordinates":[-73.9871438,40.7523722,0]},"properties":{"name":"37th & Broadway","Address":"1372 Broadway 10018"}},{"type":"Feature","geometry":{"type":"Point","coordinates":[-73.9876205,40.7247267,0]},"properties":{"name":"3rd & 1st","Address":"49 - 1/2 First Avenue 10003"}},{"type":"Feature","geometry":{"type":"Point","coordinates":[-73.979465,40.751758,0]},"properties":{"name":"41st & Madison","Address":"295 Madison Avenue 10017"}},{"type":"Feature","geometry":{"type":"Point","coordinates":[-73.9922191,40.7579933,0]},"properties":{"name":"42nd & 9th","Address":"350 West 42nd Street 10036"}},{"type":"Feature","geometry":{"type":"Point","coordinates":[-73.9769735349182,40.7533002986531,0]},"properties":{"name":"42nd & Park (Grand Central)","Address":"89 East 42nd Street 10017 "}},{"type":"Feature","geometry":{"type":"Point","coordinates":[-73.977385,40.751711,0]},"properties":{"name":"42nd & Park SEC","Address":"125 Park Avenue 10017"}},{"type":"Feature","geometry":{"type":"Point","coordinates":[-73.9923034,40.7589126,0]},"properties":{"name":"43rd & 9th","Address":"593 Ninth Avenue 10036"}},{"type":"Feature","geometry":{"type":"Point","coordinates":[-73.9794201,40.7551021,0]},"properties":{"name":"45th & 5th","Address":"545 Fifth Avenue 10017"}},{"type":"Feature","geometry":{"type":"Point","coordinates":[-73.9860673,40.7586043,0]},"properties":{"name":"45th & Broadway NWC (Marriott Marquis)","Address":"1535 Broadway 10036"}},{"type":"Feature","geometry":{"type":"Point","coordinates":[-73.9823008,40.7576123,0]},"properties":{"name":"47th & 6th","Address":"1185 Avenue of the Americas 10036"}},{"type":"Feature","geometry":{"type":"Point","coordinates":[-73.986974,40.760515,0]},"properties":{"name":"47th & 8th","Address":"770 Eighth Avenue 10036"}},{"type":"Feature","geometry":{"type":"Point","coordinates":[-73.9717192,40.7540499,0]},"properties":{"name":"48th & 3rd","Address":"757 Third Avenue 10017"}},{"type":"Feature","geometry":{"type":"Point","coordinates":[-73.9837606,40.7608268,0]},"properties":{"name":"49th & 7th","Address":"750 Seventh Avenue 10019"}},{"type":"Feature","geometry":{"type":"Point","coordinates":[-73.968718,40.755088,0]},"properties":{"name":"50th & 2nd","Address":"943 Second Avenue 10022"}},{"type":"Feature","geometry":{"type":"Point","coordinates":[-73.9795094,40.7607644,0]},"properties":{"name":"52nd & 6th","Address":"1290 Sixth Avenue 10019"}},{"type":"Feature","geometry":{"type":"Point","coordinates":[-73.9798485465576,40.7619165156577,0]},"properties":{"name":"53rd & 6th SWC","Address":"1301 Avenue of the Americas 10019"}},{"type":"Feature","geometry":{"type":"Point","coordinates":[-73.9741552,40.762469,0]},"properties":{"name":"56th & 5th (Trump Tower)","Address":"725 5th Avenue 10022"}},{"type":"Feature","geometry":{"type":"Point","coordinates":[-73.9791897,40.7648436,0]},"properties":{"name":"56th & 6 1/2","Address":"120 West 56th Street 10019"}},{"type":"Feature","geometry":{"type":"Point","coordinates":[-73.9773713,40.7635627,0]},"properties":{"name":"56th & 6th","Address":"1380 Sixth Avenue 10019"}},{"type":"Feature","geometry":{"type":"Point","coordinates":[-73.9824254,40.7660284,0]},"properties":{"name":"57th & 8th SEC","Address":"250 West 57th Street 10107"}},{"type":"Feature","geometry":{"type":"Point","coordinates":[-73.9769441,40.7647222,0]},"properties":{"name":"58th & 6th","Address":"1411 Sixth Avenue 10019"}},{"type":"Feature","geometry":{"type":"Point","coordinates":[-73.982908,40.767363,0]},"properties":{"name":"58th & 8th","Address":"4 Columbus Circle 10019"}},{"type":"Feature","geometry":{"type":"Point","coordinates":[-73.965934,40.7624348,0]},"properties":{"name":"60th & 3rd","Address":"1021 Third Avenue 10065"}},{"type":"Feature","geometry":{"type":"Point","coordinates":[-73.98264,40.769317,0]},"properties":{"name":"60th & Broadway","Address":"1841 Broadway 10023"}},{"type":"Feature","geometry":{"type":"Point","coordinates":[-73.956699,40.7711196,0]},"properties":{"name":"76th & 2nd","Address":"1449 Second Avenue 10021"}},{"type":"Feature","geometry":{"type":"Point","coordinates":[-73.9788585,40.7849726,0]},"properties":{"name":"81st & Broadway","Address":"2252 Broadway 10024"}},{"type":"Feature","geometry":{"type":"Point","coordinates":[-73.970668,40.796885,0]},"properties":{"name":"99th & Broadway","Address":"2621 Broadway 10025"}},{"type":"Feature","geometry":{"type":"Point","coordinates":[-74.0080149,40.7103047,0]},"properties":{"name":"Fulton & Nassau","Address":"130 Fulton Street 10038"}},{"type":"Feature","geometry":{"type":"Point","coordinates":[-74.000741,40.7213629,0]},"properties":{"name":"Grand & Broadway","Address":"471 Broadway 10013"}},{"type":"Feature","geometry":{"type":"Point","coordinates":[-74.009439,40.7045238,0]},"properties":{"name":"Hanover & Pearl","Address":"110 Pearl Street 10005"}},{"type":"Feature","geometry":{"type":"Point","coordinates":[-74.0049962,40.7071539,0]},"properties":{"name":"John & Water","Address":"135 John Street 10038"}},{"type":"Feature","geometry":{"type":"Point","coordinates":[-74.0072918,40.7060947,0]},"properties":{"name":"Maiden & Pearl","Address":"80 Pine Street 10005"}},{"type":"Feature","geometry":{"type":"Point","coordinates":[-74.00532,40.726008,0]},"properties":{"name":"Spring & Varick","Address":"150 Varick Street 10013"}},{"type":"Feature","geometry":{"type":"Point","coordinates":[-74.0128783,40.7044581,0]},"properties":{"name":"Stone & Whitehall","Address":"2 Broadway 10004"}},{"type":"Feature","geometry":{"type":"Point","coordinates":[-73.999662,40.732961,0]},"properties":{"name":"Waverly & 6th","Address":"378 6th Avenue 10011"}},{"type":"Feature","geometry":{"type":"Point","coordinates":[-73.9655589,40.7951002,0]},"properties":{"name":"100th & Columbus Ave","Address":"805 Columbus Avenue 10025"}},{"type":"Feature","geometry":{"type":"Point","coordinates":[-73.9682951,40.7988872,0]},"properties":{"name":"103rd & Broadway","Address":"2690 Broadway 10025"}},{"type":"Feature","geometry":{"type":"Point","coordinates":[-73.964973,40.807124,0]},"properties":{"name":"114th & Broadway","Address":"2929 Broadway 10025"}},{"type":"Feature","geometry":{"type":"Point","coordinates":[-73.9542014,40.8062992,0]},"properties":{"name":"118th & Frederick Douglas Blvd","Address":"2195 Frederick Douglas Blvd 10026"}},{"type":"Feature","geometry":{"type":"Point","coordinates":[-73.9485801,40.8092821,0]},"properties":{"name":"125th & Adam Clayton Powell Jr Blvd","Address":"201 West 125th Street 10027"}},{"type":"Feature","geometry":{"type":"Point","coordinates":[-73.983248,40.7308499,0]},"properties":{"name":"13th & 1st","Address":"219 First Avenue 10003"}},{"type":"Feature","geometry":{"type":"Point","coordinates":[-73.9425274825867,40.8233846607393,0]},"properties":{"name":"145th & Bradhurst","Address":"301 West 145th Street 10039"}},{"type":"Feature","geometry":{"type":"Point","coordinates":[-73.9966846851806,40.7370376581337,0]},"properties":{"name":"14th & 6th","Address":"510 Sixth Avenue 10011"}},{"type":"Feature","geometry":{"type":"Point","coordinates":[-74.0012264,40.7412852,0]},"properties":{"name":"16th & 8th","Address":"124 Eighth Avenue 10011"}},{"type":"Feature","geometry":{"type":"Point","coordinates":[-74.0006049,40.743218,0]},"properties":{"name":"19th & 8th","Address":"177 Eighth Avenue 10011"}},{"type":"Feature","geometry":{"type":"Point","coordinates":[-73.988213,40.738087,0]},"properties":{"name":"19th & Park","Address":"240 Park Avenue South 10003"}},{"type":"Feature","geometry":{"type":"Point","coordinates":[-73.991888461377,40.7437406008336,0]},"properties":{"name":"24th & 6th","Address":"750 6th Avenue 10010"}},{"type":"Feature","geometry":{"type":"Point","coordinates":[-73.9842917,40.7405031,0]},"properties":{"name":"24th & Lexington","Address":"50 Lexington Avenue 10010"}},{"type":"Feature","geometry":{"type":"Point","coordinates":[-73.9928976,40.7478609,0]},"properties":{"name":"28th & 7th","Address":"315 Seventh Avenue 10001"}},{"type":"Feature","geometry":{"type":"Point","coordinates":[-73.9892182,40.7481369,0]},"properties":{"name":"31st & 6th","Address":"875 Sixth Avenue 10001"}},{"type":"Feature","geometry":{"type":"Point","coordinates":[-73.9767727,40.7438883,0]},"properties":{"name":"32nd & 2nd","Address":"585 2nd Avenue 10016"}},{"type":"Feature","geometry":{"type":"Point","coordinates":[-73.9926641190491,40.7505108955359,0]},"properties":{"name":"33rd & 7th (Penn Station)","Address":"1 Penn Plaza 10119"}},{"type":"Feature","geometry":{"type":"Point","coordinates":[-73.9937370026551,40.7509497914031,0]},"properties":{"name":"33rd & 8th (Penn Station)","Address":"1 Penn Plaza 10119"}},{"type":"Feature","geometry":{"type":"Point","coordinates":[-73.9881991530258,40.7505694705411,0]},"properties":{"name":"34th & Broadway (Macy's 3rd Floor)","Address":"151 West 34th Street 10001"}},{"type":"Feature","geometry":{"type":"Point","coordinates":[-73.983693,40.749076,0]},"properties":{"name":"35th & 5th","Address":"373 5th Avenue 10016"}},{"type":"Feature","geometry":{"type":"Point","coordinates":[-73.9900283,40.752003,0]},"properties":{"name":"35th & 7th","Address":"462 7th Avenue 10018"}},{"type":"Feature","geometry":{"type":"Point","coordinates":[-73.9884515,40.753594,0]},"properties":{"name":"38th & 7th","Address":"525 7th Avenue 10018"}},{"type":"Feature","geometry":{"type":"Point","coordinates":[-73.9791168,40.7506848,0]},"properties":{"name":"39th & Park","Address":"90 Park Avenue 10016"}},{"type":"Feature","geometry":{"type":"Point","coordinates":[-73.9911421343933,40.7566512557587,0]},"properties":{"name":"41st & 8th (Port Authority)","Address":"625 Eighth Avenue 10018"}},{"type":"Feature","geometry":{"type":"Point","coordinates":[-73.986225,40.755111,0]},"properties":{"name":"41st & Broadway","Address":"1460 Broadway 10036"}},{"type":"Feature","geometry":{"type":"Point","coordinates":[-73.9732992,40.749995,0]},"properties":{"name":"42nd & 2nd","Address":"220 East 42nd Street 10017"}},{"type":"Feature","geometry":{"type":"Point","coordinates":[-73.9753715,40.7510214,0]},"properties":{"name":"42nd & 3rd","Address":"150 East 42nd Street 10017"}},{"type":"Feature","geometry":{"type":"Point","coordinates":[-73.9839786,40.7549225,0]},"properties":{"name":"42nd & 6th","Address":"1100 Avenue of the Americas 10036"}},{"type":"Feature","geometry":{"type":"Point","coordinates":[-73.9891531,40.7571074,0]},"properties":{"name":"42nd & 8th","Address":"251 West 42nd Street 10036"}},{"type":"Feature","geometry":{"type":"Point","coordinates":[-73.9784421116394,40.7535362070279,0]},"properties":{"name":"43rd & Madison","Address":"335 Madison Avenue 10017"}},{"type":"Feature","geometry":{"type":"Point","coordinates":[-73.989958,40.761619,0]},"properties":{"name":"47th & 9th","Address":"682 9th Avenue 10036"}},{"type":"Feature","geometry":{"type":"Point","coordinates":[-73.9866459814758,40.761991548578,0]},"properties":{"name":"49th & 8th","Address":"825 Eighth Avenue 10019"}},{"type":"Feature","geometry":{"type":"Point","coordinates":[-73.9758689,40.7570036,0]},"properties":{"name":"49th & Madison","Address":"425 Madison Avenue 10017"}},{"type":"Feature","geometry":{"type":"Point","coordinates":[-73.9794726,40.7592206,0]},"properties":{"name":"50th & 6th (Rockefeller Center)","Address":"30 Rockefeller Plaza 10112"}},{"type":"Feature","geometry":{"type":"Point","coordinates":[-73.972635,40.756861,0]},"properties":{"name":"50th & Lexington","Address":"560 Lexington Avenue 10022"}},{"type":"Feature","geometry":{"type":"Point","coordinates":[-73.9744576,40.758282,0]},"properties":{"name":"51st & Park","Address":"45 East 51st Street 10022"}},{"type":"Feature","geometry":{"type":"Point","coordinates":[-73.985262,40.763917,0]},"properties":{"name":"52nd & 8th","Address":"871 8th Avenue 10019"}},{"type":"Feature","geometry":{"type":"Point","coordinates":[-73.973254,40.7593419,0]},"properties":{"name":"53rd & Park","Address":"55 East 53rd Street 10022"}},{"type":"Feature","geometry":{"type":"Point","coordinates":[-73.9811713422973,40.7645891890799,0]},"properties":{"name":"55th & 7th","Address":"870 7th Avenue 10019"}},{"type":"Feature","geometry":{"type":"Point","coordinates":[-73.9700117066071,40.7594223618935,0]},"properties":{"name":"55th & Lexington","Address":"655 Lexington Avenue 10022"}},{"type":"Feature","geometry":{"type":"Point","coordinates":[-73.9791194,40.7649513,0]},"properties":{"name":"57th & 6 1/2","Address":"142 West 57th Street 10019"}},{"type":"Feature","geometry":{"type":"Point","coordinates":[-73.9841974,40.7672065,0]},"properties":{"name":"57th & 8th SWC","Address":"322 West 57th Street 10019"}},{"type":"Feature","geometry":{"type":"Point","coordinates":[-73.970009,40.760981,0]},"properties":{"name":"57th & Lexington SWC","Address":"116 East 57th Street 10022"}},{"type":"Feature","geometry":{"type":"Point","coordinates":[-73.9679708,40.7617379,0]},"properties":{"name":"58th & Lexington","Address":"731 Lexington Avenue 10022"}},{"type":"Feature","geometry":{"type":"Point","coordinates":[-73.963701,40.765941,0]},"properties":{"name":"66th & 3rd","Address":"1128 Third Avenue 10065"}},{"type":"Feature","geometry":{"type":"Point","coordinates":[-73.9574993730163,40.7660686976669,0]},"properties":{"name":"69th & 1st","Address":"1281 First Avenue 10065"}},{"type":"Feature","geometry":{"type":"Point","coordinates":[-73.9821962,40.7776235,0]},"properties":{"name":"70th & Broadway","Address":"2045 Broadway 10023"}},{"type":"Feature","geometry":{"type":"Point","coordinates":[-73.9546377,40.7701718,0]},"properties":{"name":"75th & 1st","Address":"1445 First Avenue 10021"}},{"type":"Feature","geometry":{"type":"Point","coordinates":[-73.9810633,40.7810583,0]},"properties":{"name":"75th & Broadway","Address":"2140 Broadway 10023"}},{"type":"Feature","geometry":{"type":"Point","coordinates":[-73.9771278,40.7799756,0]},"properties":{"name":"76th & Columbus","Address":"338 Columbus Avenue 10023"}},{"type":"Feature","geometry":{"type":"Point","coordinates":[-73.959395,40.774129,0]},"properties":{"name":"78th & Lexington","Address":"1117 Lexington Avenue 10075"}},{"type":"Feature","geometry":{"type":"Point","coordinates":[-73.9550227,40.7774731,0]},"properties":{"name":"84th & 3rd","Address":"1488 Third Avenue 10028"}},{"type":"Feature","geometry":{"type":"Point","coordinates":[-73.9560822,40.778781,0]},"properties":{"name":"85th & Lexington","Address":"1261 Lexington Avenue 10028"}},{"type":"Feature","geometry":{"type":"Point","coordinates":[-73.951563,40.7826307,0]},"properties":{"name":"92nd & 3rd","Address":"1642 Third Avenue 10128"}},{"type":"Feature","geometry":{"type":"Point","coordinates":[-73.973031,40.793673,0]},"properties":{"name":"95th & Broadway","Address":"2521 Broadway 10025"}},{"type":"Feature","geometry":{"type":"Point","coordinates":[-73.9543684,40.7871248,0]},"properties":{"name":"96th & Madison","Address":"1378 Madison Avenue 10128"}},{"type":"Feature","geometry":{"type":"Point","coordinates":[-74.008428,40.712363,0]},"properties":{"name":"Barclay & Broadway","Address":"233 Broadway 10279"}},{"type":"Feature","geometry":{"type":"Point","coordinates":[-74.0103088050324,40.7109926816436,0]},"properties":{"name":"Dey & Church","Address":"195 Broadway 10007"}},{"type":"Feature","geometry":{"type":"Point","coordinates":[-74.000281,40.726866,0]},"properties":{"name":"Houston & West Broadway","Address":"482 West Broadway 10012"}},{"type":"Feature","geometry":{"type":"Point","coordinates":[-74.015526,40.710651,0]},"properties":{"name":"Liberty & West St","Address":"200 Liberty Street 10006"}},{"type":"Feature","geometry":{"type":"Point","coordinates":[-74.0091924,40.7135922,0]},"properties":{"name":"Murray & Church","Address":"120 Church Street 10007"}},{"type":"Feature","geometry":{"type":"Point","coordinates":[-74.0135469,40.7034442,0]},"properties":{"name":"Pearl & State","Address":"1 Battery Park Plaza 10004"}},{"type":"Feature","geometry":{"type":"Point","coordinates":[-74.005995,40.733682,0]},"properties":{"name":"10th & Hudson","Address":"518 Hudson Street 10014"}},{"type":"Feature","geometry":{"type":"Point","coordinates":[-73.9667269,40.8046818,0]},"properties":{"name":"111th & Broadway","Address":"2853 Broadway 10025"}},{"type":"Feature","geometry":{"type":"Point","coordinates":[-73.9815446,40.7327136,0]},"properties":{"name":"17th & 1st","Address":"286 First Avenue 10003"}},{"type":"Feature","geometry":{"type":"Point","coordinates":[-73.991431,40.7404,0]},"properties":{"name":"21st & 5th","Address":"4 West 21st Street 10010"}},{"type":"Feature","geometry":{"type":"Point","coordinates":[-73.993232,40.741843,0]},"properties":{"name":"22nd & 6th","Address":"684 Avenues of the Americas 10010"}},{"type":"Feature","geometry":{"type":"Point","coordinates":[-73.994952,40.744376,0]},"properties":{"name":"23rd & 7th","Address":"229 Seventh Avenue 10011"}},{"type":"Feature","geometry":{"type":"Point","coordinates":[-73.988992,40.7440873,0]},"properties":{"name":"26th & Broadway","Address":"1140 Broadway 10010"}},{"type":"Feature","geometry":{"type":"Point","coordinates":[-73.983754,40.744251,0]},"properties":{"name":"29th & Park","Address":"424 Park Avenue South 10016"}},{"type":"Feature","geometry":{"type":"Point","coordinates":[-73.9924036693115,40.7489648261791,0]},"properties":{"name":"31st & 7th","Address":"370 7th Avenue 10001"}},{"type":"Feature","geometry":{"type":"Point","coordinates":[-73.9855033,40.7477185,0]},"properties":{"name":"33rd & 5th","Address":"334 Fifth Avenue 10001"}},{"type":"Feature","geometry":{"type":"Point","coordinates":[-73.9854549693115,40.7485906073043,0]},"properties":{"name":"34th & 5th","Address":"350 Fifth Avenue 10118"}},{"type":"Feature","geometry":{"type":"Point","coordinates":[-73.9892398501236,40.7506791946827,0]},"properties":{"name":"34th & Broadway (Macy's Balcony)","Address":"151 West 34th Street 10001"}},{"type":"Feature","geometry":{"type":"Point","coordinates":[-73.9811875,40.7467874,0]},"properties":{"name":"34th & Park","Address":"3 Park Avenue 10016"}},{"type":"Feature","geometry":{"type":"Point","coordinates":[-73.9824917,40.7488274,0]},"properties":{"name":"36th & Madison","Address":"200 Madison Avenue 10016"}},{"type":"Feature","geometry":{"type":"Point","coordinates":[-73.990822,40.755352,0]},"properties":{"name":"39th & 8th","Address":"600 Eighth Avenue 10018"}},{"type":"Feature","geometry":{"type":"Point","coordinates":[-73.976773,40.750505,0]},"properties":{"name":"40th & Lexington","Address":"360 Lexington Avenue 10017"}},{"type":"Feature","geometry":{"type":"Point","coordinates":[-73.9735543944428,40.7515814552373,0]},"properties":{"name":"43rd & 3rd","Address":"685 Third Avenue 10017"}},{"type":"Feature","geometry":{"type":"Point","coordinates":[-73.9851604735413,40.7577115389308,0]},"properties":{"name":"45th & Broadway SEC","Address":"1530 Broadway 10036"}},{"type":"Feature","geometry":{"type":"Point","coordinates":[-73.9784504,40.756347,0]},"properties":{"name":"47th & 5th","Address":"575 Fifth Avenue 10017"}},{"type":"Feature","geometry":{"type":"Point","coordinates":[-73.98558,40.7600624,0]},"properties":{"name":"47th & Broadway","Address":"1585 Broadway 10036"}},{"type":"Feature","geometry":{"type":"Point","coordinates":[-73.9876729478851,40.7623565362288,0]},"properties":{"name":"49th & 9th","Address":"325 West 49th Street 10019"}},{"type":"Feature","geometry":{"type":"Point","coordinates":[-73.9834063,40.7623741,0]},"properties":{"name":"51st & Broadway","Address":"1656 Broadway 10019"}},{"type":"Feature","geometry":{"type":"Point","coordinates":[-73.9708163,40.7577483,0]},"properties":{"name":"52nd & Lexington","Address":"599 Lexington Avenue 10022"}},{"type":"Feature","geometry":{"type":"Point","coordinates":[-73.9711034,40.7586062,0]},"properties":{"name":"53rd & Lexington","Address":"630 Lexington Avenue 10022"}},{"type":"Feature","geometry":{"type":"Point","coordinates":[-73.9737999,40.7597418,0]},"properties":{"name":"53rd & Madison","Address":"515 Madison Avenue 10022"}},{"type":"Feature","geometry":{"type":"Point","coordinates":[-73.97312,40.761239,0]},"properties":{"name":"55th & Madison (Sony)","Address":"550 Madison Avenue 10022"}},{"type":"Feature","geometry":{"type":"Point","coordinates":[-73.9847969,40.7692991,0]},"properties":{"name":"59th & 9th","Address":"2 Columbus Avenue 10023"}},{"type":"Feature","geometry":{"type":"Point","coordinates":[-73.9613983,40.7603695,0]},"properties":{"name":"60th & 1st","Address":"1102 1st Avenue 10065"}},{"type":"Feature","geometry":{"type":"Point","coordinates":[-73.982709,40.7713759,0]},"properties":{"name":"63rd & Broadway","Address":"1889 Broadway 10023"}},{"type":"Feature","geometry":{"type":"Point","coordinates":[-73.9663405,40.7647199,0]},"properties":{"name":"63rd & Lexington","Address":"822 Lexington Avenue 10065"}},{"type":"Feature","geometry":{"type":"Point","coordinates":[-73.98151,40.774259,0]},"properties":{"name":"67th & Columbus","Address":"152-154 Columbus Avenue 10023"}},{"type":"Feature","geometry":{"type":"Point","coordinates":[-73.978348,40.7780691,0]},"properties":{"name":"73rd & Columbus","Address":"267-275 Columbus Avenue 10023"}},{"type":"Feature","geometry":{"type":"Point","coordinates":[-73.9498746,40.7722078,0]},"properties":{"name":"80th & York","Address":"1515 York Avenue 10028"}},{"type":"Feature","geometry":{"type":"Point","coordinates":[-73.9743502,40.7835627,0]},"properties":{"name":"81st & Columbus","Address":"444 Columbus Avenue 10024"}},{"type":"Feature","geometry":{"type":"Point","coordinates":[-73.9502226,40.7761798,0]},"properties":{"name":"85th & 1st","Address":"1631 First Avenue 10028"}},{"type":"Feature","geometry":{"type":"Point","coordinates":[-73.9557811,40.7802076,0]},"properties":{"name":"87th & Lexington","Address":"120 East 87th Street 10128"}},{"type":"Feature","geometry":{"type":"Point","coordinates":[-73.9473634,40.7792285,0]},"properties":{"name":"90th & 1st","Address":"400 East 90th Street 10128"}},{"type":"Feature","geometry":{"type":"Point","coordinates":[-73.9731072,40.7926981,0]},"properties":{"name":"93rd & Broadway","Address":"2498 Broadway 10025"}},{"type":"Feature","geometry":{"type":"Point","coordinates":[-73.9506716,40.7859661,0]},"properties":{"name":"96th & Lexington","Address":"1491 Lexington Avenue 10029"}},{"type":"Feature","geometry":{"type":"Point","coordinates":[-73.9873990280335,40.7293883489604,0]},"properties":{"name":"9th & 2nd","Address":"145 2nd Avenue 10003"}},{"type":"Feature","geometry":{"type":"Point","coordinates":[-73.9916176,40.7299899,0]},"properties":{"name":"Astor Place & Lafayette","Address":"13-25 Astor Place 10003"}},{"type":"Feature","geometry":{"type":"Point","coordinates":[-74.0110224,40.7050304,0]},"properties":{"name":"Beaver & Broad","Address":"55 Broad Street 10004"}},{"type":"Feature","geometry":{"type":"Point","coordinates":[-74.0066968172661,40.7116784818781,0]},"properties":{"name":"Beekman & Park Row","Address":"38 Park Row #4 10038"}},{"type":"Feature","geometry":{"type":"Point","coordinates":[-73.9954092,40.7272802,0]},"properties":{"name":"Bond & Broadway","Address":"665 Broadway 10012"}},{"type":"Feature","geometry":{"type":"Point","coordinates":[-74.008794,40.715551,0]},"properties":{"name":"Chambers & West Broadway","Address":"125 Chambers Street 10007"}},{"type":"Feature","geometry":{"type":"Point","coordinates":[-74.0074375079346,40.7275975201437,0]},"properties":{"name":"Charlton & Hudson","Address":"345 Hudson Street 10014"}},{"type":"Feature","geometry":{"type":"Point","coordinates":[-73.9898599,40.719354,0]},"properties":{"name":"Delancey & Allen","Address":"80 Delancey Street 10002"}},{"type":"Feature","geometry":{"type":"Point","coordinates":[-74.007281,40.7048404,0]},"properties":{"name":"Front & Wall","Address":"99 Wall Street 10005"}},{"type":"Feature","geometry":{"type":"Point","coordinates":[-74.0026263,40.7393463,0]},"properties":{"name":"Greenwich & 8th","Address":"122 Greenwich Avenue 10011"}},{"type":"Feature","geometry":{"type":"Point","coordinates":[-74.0016825,40.7372641,0]},"properties":{"name":"Greenwich & Bank","Address":"93 Greenwich Avenue 10014"}},{"type":"Feature","geometry":{"type":"Point","coordinates":[-74.002708,40.73311,0]},"properties":{"name":"Grove & 7th","Address":"72 Grove Street 10014"}},{"type":"Feature","geometry":{"type":"Point","coordinates":[-74.0094499,40.7086087,0]},"properties":{"name":"Liberty & Nassau","Address":"55 Liberty Street 10005"}},{"type":"Feature","geometry":{"type":"Point","coordinates":[-74.0059061,40.7150028,0]},"properties":{"name":"Reade & Broadway","Address":"291 Broadway 10007"}},{"type":"Feature","geometry":{"type":"Point","coordinates":[-73.9526439,40.7590905,0]},"properties":{"name":"Roosevelt Island","Address":"455 Main Street 10044"}},{"type":"Feature","geometry":{"type":"Point","coordinates":[-74.0112107,40.7088429,0]},"properties":{"name":"Thames & Broadway","Address":"115 Broadway 10006"}},{"type":"Feature","geometry":{"type":"Point","coordinates":[-74.0026819,40.718969,0]},"properties":{"name":"Walker & Broadway","Address":"405 Broadway 10013"}},{"type":"Feature","geometry":{"type":"Point","coordinates":[-73.9962901,40.7297471,0]},"properties":{"name":"West 4th & Washington Square East","Address":"79 Washington Square East 10003"}},{"type":"Feature","geometry":{"type":"Point","coordinates":[-74.0031469455078,40.7158823420758,0]},"properties":{"name":"Worth & Lafayette","Address":"111 Worth Street 10013"}},{"type":"Feature","geometry":{"type":"Point","coordinates":[-74.0072156,40.7181132,0]},"properties":{"name":"Leonard & W Broadway","Address":"180 West Broadway 10013"}},{"type":"Feature","geometry":{"type":"Point","coordinates":[-73.9781876,40.7371885,0]},"properties":{"name":"23rd & 1st","Address":"400 E 23rd Street 10010"}},{"type":"Feature","geometry":{"type":"Point","coordinates":[-73.9888965273697,40.7507645355564,0]},"properties":{"name":"34th & Broadway (Macy's 2nd Floor)","Address":"151 West 34th Street 10001"}},{"type":"Feature","geometry":{"type":"Point","coordinates":[-73.9754809,40.7893309,0]},"properties":{"name":"88th & Broadway","Address":"2394 Broadway 10024"}},{"type":"Feature","geometry":{"type":"Point","coordinates":[-73.9722137,40.786724,0]},"properties":{"name":"86th & Columbus","Address":"540 Columbus Avenue 10024"}},{"type":"Feature","geometry":{"type":"Point","coordinates":[-73.9501539,40.7761409,0]},"properties":{"name":"81st & 2nd","Address":"1559 Second Avenue 10028"}},{"type":"Feature","geometry":{"type":"Point","coordinates":[-73.9724452,40.762943,0]},"properties":{"name":"58th & Madison","Address":"600 Madison Avenue 10022"}},{"type":"Feature","geometry":{"type":"Point","coordinates":[-73.980867,40.7419152,0]},"properties":{"name":"28th & 3rd","Address":"393 Third Avenue 10016"}},{"type":"Feature","geometry":{"type":"Point","coordinates":[-73.990589,40.7370281,0]},"properties":{"name":"17th & Union Square West","Address":"41 Union Square West 10003"}},{"type":"Feature","geometry":{"type":"Point","coordinates":[-73.997879,40.722386,0]},"properties":{"name":"Spring & Crosby","Address":"72 Spring Street 10012"}},{"type":"Feature","geometry":{"type":"Point","coordinates":[-73.9753911,40.7558074,0]},"properties":{"name":"47th & Park","Address":"270 Park Avenue 10017"}},{"type":"Feature","geometry":{"type":"Point","coordinates":[-73.9786012,40.7628311,0]},"properties":{"name":"55th & 6th","Address":"1345 Sixth Avenue 10105"}},{"type":"Feature","geometry":{"type":"Point","coordinates":[-73.981822,40.7648966,0]},"properties":{"name":"56th & Broadway","Address":"1740 Broadway 10019"}},{"type":"Feature","geometry":{"type":"Point","coordinates":[-74.0111281,40.7068599,0]},"properties":{"name":"Wall & New (NYSE)","Address":"11 Wall Street 10005"}}]}